Name,Latitude,Longitude,Type,Dosages
Apollo Pharmacy - Indiranagar,12.9719,77.6412,Offline,"0.25mg, 0.5mg"
MedPlus - Koramangala,12.9352,77.6245,Offline,"0.25mg, 0.5mg"
Guardian Pharmacy - MG Road,12.9756,77.604,Offline,Not available
Apollo Pharmacy - Whitefield,12.9698,77.75,Offline,"0.25mg, 0.5mg, 1mg"
MedPlus - Jayanagar,12.925,77.5938,Offline,0.5mg only
Tata 1mg Online,12.9716,77.5946,Online,"0.5mg, 1mg"
